[{"fsq_id": "4d2ef96479dd6ea83b848dd3", "categories": [{"id": 11057, "name": "Caterer", "icon": {"prefix": "https://ss3.4sqi.net/img/categories_v2/shops/foodanddrink_", "suffix": ".png"}}], "chains": [], "distance": 226, "geocodes": {"main": {"latitude": 44.3814, "longitude": -79.697968}, "roof": {"latitude": 44.3814, "longitude": -79.697968}}, "link": "/v3/places/4d2ef96479dd6ea83b848dd3", "location": {"address": "96 Victoria St", "country": "CA", "cross_street": "", "formatted_address": "96 Victoria St, Barrie ON L4N 2J1", "locality": "Barrie", "postcode": "L4N 2J1", "region": "ON"}, "name": "Fox's Catering", "related_places": {}, "timezone": "America/Toronto"}, {"fsq_id": "4b6eee17f964a5209cd12ce3", "categories": [{"id": 13049, "name": "Diner", "icon": {"prefix": "https://ss3.4sqi.net/img/categories_v2/food/diner_", "suffix": ".png"}}, {"id": 13068, "name": "American Restaurant", "icon": {"prefix": "https://ss3.4sqi.net/img/categories_v2/food/default_", "suffix": ".png"}}, {"id": 13303, "name": "Mexican Restaurant", "icon": {"prefix": "https://ss3.4sqi.net/img/categories_v2/food/mexican_", "suffix": ".png"}}], "chains": [], "distance": 523, "geocodes": {"main": {"latitude": 44.379593, "longitude": -79.693388}, "roof": {"latitude": 44.379593, "longitude": -79.693388}}, "link": "/v3/places/4b6eee17f964a5209cd12ce3", "location": {"address": "151 Bradford St", "country": "CA", "cross_street": "at John St", "formatted_address": "151 Bradford St (at John St), Barrie ON L4N 3B4", "locality": "Barrie", "neighborhood": ["Barrie"], "postcode": "L4N 3B4", "region": "ON"}, "name": "Midway Diner", "related_places": {}, "timezone": "America/Toronto"}, {"fsq_id": "5a70fb7a9411f2304935997a", "categories": [{"id": 13276, "name": "Sushi Restaurant", "icon": {"prefix": "https://ss3.4sqi.net/img/categories_v2/food/sushi_", "suffix": ".png"}}], "chains": [], "distance": 318, "geocodes": {"main": {"latitude": 44.381097, "longitude": -79.703525}, "roof": {"latitude": 44.381097, "longitude": -79.703525}}, "link": "/v3/places/5a70fb7a9411f2304935997a", "location": {"address": "29 Anne St S", "country": "CA", "cross_street": "Dunlop Street", "formatted_address": "29 Anne St S (Dunlop Street), Barrie ON L4N 2C5", "locality": "Barrie", "postcode": "L4N 2C5", "region": "ON"}, "name": "Diamond Sushi", "related_places": {}, "timezone": "America/Toronto"}, {"fsq_id": "4f64d368e4b087553d3b8565", "categories": [{"id": 10000, "name": "Arts and Entertainment", "icon": {"prefix": "https://ss3.4sqi.net/img/categories_v2/arts_entertainment/default_", "suffix": ".png"}}, {"id": 13003, "name": "Bar", "icon": {"prefix": "https://ss3.4sqi.net/img/categories_v2/nightlife/pub_", "suffix": ".png"}}, {"id": 13068, "name": "American Restaurant", "icon": {"prefix": "https://ss3.4sqi.net/img/categories_v2/food/default_", "suffix": ".png"}}], "chains": [], "distance": 351, "geocodes": {"main": {"latitude": 44.381314, "longitude": -79.703656}, "roof": {"latitude": 44.381314, "longitude": -79.703656}}, "link": "/v3/places/4f64d368e4b087553d3b8565", "location": {"address": "29 Anne St S", "country": "CA", "cross_street": "", "formatted_address": "29 Anne St S, Barrie ON L4N 2C5", "locality": "Barrie", "postcode": "L4N 2C5", "region": "ON"}, "name": "Tiffsbar", "related_places": {}, "timezone": "America/Toronto"}, {"fsq_id": "52cdd69b498e578c8ba767cd", "categories": [{"id": 13055, "name": "Fried Chicken Joint", "icon": {"prefix": "https://ss3.4sqi.net/img/categories_v2/food/friedchicken_", "suffix": ".png"}}, {"id": 13145, "name": "Fast Food Restaurant", "icon": {"prefix": "https://ss3.4sqi.net/img/categories_v2/food/fastfood_", "suffix": ".png"}}], "chains": [], "distance": 455, "geocodes": {"main": {"latitude": 44.382539, "longitude": -79.704669}, "roof": {"latitude": 44.382539, "longitude": -79.704669}}, "link": "/v3/places/52cdd69b498e578c8ba767cd", "location": {"address": "7 Anne St S", "address_extended": "A/k/a Barrie - North", "country": "CA", "cross_street": "at Dunlop ST W", "formatted_address": "7 Anne St S (at Dunlop ST W), Barrie ON L4N 2C4", "locality": "Barrie", "neighborhood": ["Barrie"], "postcode": "L4N 2C4", "region": "ON"}, "name": "Popeye's Louisiana Kitchen", "related_places": {}, "timezone": "America/Toronto"}, {"fsq_id": "4d9cecc1c593a1cd21be5419", "categories": [{"id": 13039, "name": "Deli", "icon": {"prefix": "https://ss3.4sqi.net/img/categories_v2/food/deli_", "suffix": ".png"}}, {"id": 13145, "name": "Fast Food Restaurant", "icon": {"prefix": "https://ss3.4sqi.net/img/categories_v2/food/fastfood_", "suffix": ".png"}}], "chains": [{"id": "ab4bee40-d68a-012e-5619-003048cad9da", "name": "Subway"}], "distance": 449, "geocodes": {"main": {"latitude": 44.382487, "longitude": -79.704613}, "roof": {"latitude": 44.382487, "longitude": -79.704613}}, "link": "/v3/places/4d9cecc1c593a1cd21be5419", "location": {"address": "7 Anne St S", "address_extended": "Unit 1B", "country": "CA", "cross_street": "", "formatted_address": "7 Anne St S, Barrie ON L4N 2C4", "locality": "Barrie", "postcode": "L4N 2C4", "region": "ON"}, "name": "Subway", "related_places": {}, "timezone": "America/Toronto"}, {"fsq_id": "4b904e2af964a520ee8233e3", "categories": [{"id": 13065, "name": "Restaurant", "icon": {"prefix": "https://ss3.4sqi.net/img/categories_v2/food/default_", "suffix": ".png"}}], "chains": [], "distance": 809, "geocodes": {"main": {"latitude": 44.386864, "longitude": -79.696032}, "roof": {"latitude": 44.386864, "longitude": -79.696032}}, "link": "/v3/places/4b904e2af964a520ee8233e3", "location": {"address": "150 Dunlop St E", "country": "CA", "cross_street": "", "formatted_address": "150 Dunlop St E, Barrie ON L4M 6H1", "locality": "Barrie", "postcode": "L4M 6H1", "region": "ON"}, "name": "Sticky Fingers Bar & Grill", "related_places": {}, "timezone": "America/Toronto"}, {"fsq_id": "4be3032fb02ec9b644514ec0", "categories": [{"id": 13002, "name": "Bakery", "icon": {"prefix": "https://ss3.4sqi.net/img/categories_v2/food/bakery_", "suffix": ".png"}}, {"id": 13039, "name": "Deli", "icon": {"prefix": "https://ss3.4sqi.net/img/categories_v2/food/deli_", "suffix": ".png"}}, {"id": 13236, "name": "Italian Restaurant", "icon": {"prefix": "https://ss3.4sqi.net/img/categories_v2/food/italian_", "suffix": ".png"}}], "chains": [], "distance": 840, "geocodes": {"main": {"latitude": 44.385811, "longitude": -79.707072}, "roof": {"latitude": 44.385811, "longitude": -79.707072}}, "link": "/v3/places/4be3032fb02ec9b644514ec0", "location": {"address": "200 Wellington St W", "country": "CA", "cross_street": "", "formatted_address": "200 Wellington St W, Barrie ON L4N 1K9", "locality": "Barrie", "neighborhood": ["Barrie"], "postcode": "L4N 1K9", "region": "ON"}, "name": "The Italian Bakery", "related_places": {}, "timezone": "America/Toronto"}, {"fsq_id": "5dee61318a062500080fa252", "categories": [{"id": 13303, "name": "Mexican Restaurant", "icon": {"prefix": "https://ss3.4sqi.net/img/categories_v2/food/mexican_", "suffix": ".png"}}], "chains": [], "distance": 515, "geocodes": {"main": {"latitude": 44.38192, "longitude": -79.706134}, "roof": {"latitude": 44.38192, "longitude": -79.706134}}, "link": "/v3/places/5dee61318a062500080fa252", "location": {"address": "285 Dunlop St W", "address_extended": "Unit 3", "country": "CA", "cross_street": "", "formatted_address": "285 Dunlop St W, Barrie ON L4N 1C1", "locality": "Barrie", "postcode": "L4N 1C1", "region": "ON"}, "name": "Mucho Burrito Fresh Mexican Grill", "related_places": {}, "timezone": "America/Toronto"}, {"fsq_id": "4d61d58129ef236a74b6b559", "categories": [{"id": 13064, "name": "Pizzeria", "icon": {"prefix": "https://ss3.4sqi.net/img/categories_v2/food/pizza_", "suffix": ".png"}}], "chains": [], "distance": 537, "geocodes": {"main": {"latitude": 44.381987, "longitude": -79.706002}, "roof": {"latitude": 44.381987, "longitude": -79.706002}}, "link": "/v3/places/4d61d58129ef236a74b6b559", "location": {"address": "285 Dunlop St W", "country": "CA", "cross_street": "Hart Drive", "formatted_address": "285 Dunlop St W (Hart Drive), Barrie ON L4N 1C1", "locality": "Barrie", "neighborhood": ["Barrie"], "postcode": "L4N 1C1", "region": "ON"}, "name": "Pizza Nova", "related_places": {}, "timezone": "America/Toronto"}, {"fsq_id": "627830dc63bfa92e0eea1b6a", "categories": [{"id": 13199, "name": "Indian Restaurant", "icon": {"prefix": "https://ss3.4sqi.net/img/categories_v2/food/indian_", "suffix": ".png"}}], "chains": [], "distance": 540, "geocodes": {"main": {"latitude": 44.380642, "longitude": -79.70675}}, "link": "/v3/places/627830dc63bfa92e0eea1b6a", "location": {"address": "19 Hart Dr", "country": "CA", "cross_street": "", "formatted_address": "19 Hart Dr, Barrie ON L4N 5M3", "locality": "Barrie", "postcode": "L4N 5M3", "region": "ON"}, "name": "Amaya Indian Room", "related_places": {}, "timezone": "America/Toronto"}, {"fsq_id": "4d42f65208d16dcb30717654", "categories": [{"id": 13049, "name": "Diner", "icon": {"prefix": "https://ss3.4sqi.net/img/categories_v2/food/diner_", "suffix": ".png"}}], "chains": [], "distance": 546, "geocodes": {"main": {"latitude": 44.380889, "longitude": -79.707054}, "roof": {"latitude": 44.380889, "longitude": -79.707054}}, "link": "/v3/places/4d42f65208d16dcb30717654", "location": {"address": "19 Hart Dr", "address_extended": "# 107", "country": "CA", "cross_street": "", "formatted_address": "19 Hart Dr, Barrie ON L4N 5M3", "locality": "Barrie", "neighborhood": ["Barrie"], "postcode": "L4N 5M3", "region": "ON"}, "name": "Andy's Place", "related_places": {}, "timezone": "America/Toronto"}, {"fsq_id": "515ded95e4b0f83168f52a67", "categories": [{"id": 13064, "name": "Pizzeria", "icon": {"prefix": "https://ss3.4sqi.net/img/categories_v2/food/pizza_", "suffix": ".png"}}], "chains": [], "distance": 719, "geocodes": {"main": {"latitude": 44.381616, "longitude": -79.691304}, "roof": {"latitude": 44.381616, "longitude": -79.691304}}, "link": "/v3/places/515ded95e4b0f83168f52a67", "location": {"address": "11 Victoria St", "country": "CA", "cross_street": "", "formatted_address": "11 Victoria St, Barrie ON L4N 6T3", "locality": "Barrie", "postcode": "L4N 6T3", "region": "ON"}, "name": "Pie Wood Fired Pizza", "related_places": {}, "timezone": "America/Toronto"}, {"fsq_id": "4c50ddbfd797e21ea1d0167b", "categories": [{"id": 13065, "name": "Restaurant", "icon": {"prefix": "https://ss3.4sqi.net/img/categories_v2/food/default_", "suffix": ".png"}}], "chains": [], "distance": 612, "geocodes": {"main": {"latitude": 44.381993, "longitude": -79.707429}, "roof": {"latitude": 44.381993, "longitude": -79.707429}}, "link": "/v3/places/4c50ddbfd797e21ea1d0167b", "location": {"address": "304 Dunlop St W", "address_extended": "# 3", "country": "CA", "cross_street": "", "formatted_address": "304 Dunlop St W, Barrie ON L4N 7L2", "locality": "Barrie", "neighborhood": ["Barrie"], "postcode": "L4N 7L2", "region": "ON"}, "name": "Wok Inn", "related_places": {}, "timezone": "America/Toronto"}, {"fsq_id": "59a72f65a6031c0cb874626f", "categories": [{"id": 13031, "name": "Burger Joint", "icon": {"prefix": "https://ss3.4sqi.net/img/categories_v2/food/burger_", "suffix": ".png"}}], "chains": [], "distance": 629, "geocodes": {"main": {"latitude": 44.374495, "longitude": -79.698759}, "roof": {"latitude": 44.374495, "longitude": -79.698759}}, "link": "/v3/places/59a72f65a6031c0cb874626f", "location": {"address": "120 Anne St S", "country": "CA", "cross_street": "", "formatted_address": "120 Anne St S, Barrie ON L4N 6A2", "locality": "Barrie", "neighborhood": ["Barrie"], "postcode": "L4N 6A2", "region": "ON"}, "name": "Heinz Burger", "related_places": {}, "timezone": "America/Toronto"}, {"fsq_id": "5c0992c6dee770002cc468f3", "categories": [{"id": 13303, "name": "Mexican Restaurant", "icon": {"prefix": "https://ss3.4sqi.net/img/categories_v2/food/mexican_", "suffix": ".png"}}], "chains": [], "distance": 655, "geocodes": {"main": {"latitude": 44.381919, "longitude": -79.707654}, "roof": {"latitude": 44.381919, "longitude": -79.707654}}, "link": "/v3/places/5c0992c6dee770002cc468f3", "location": {"address": "304 Dunlop St W", "country": "CA", "cross_street": "", "formatted_address": "304 Dunlop St W, Barrie ON L4N 7L2", "locality": "Barrie", "postcode": "L4N 7L2", "region": "ON"}, "name": "The Mexican House", "related_places": {}, "timezone": "America/Toronto"}, {"fsq_id": "4c15a8a382a3c9b6de3dfff8", "categories": [{"id": 13064, "name": "Pizzeria", "icon": {"prefix": "https://ss3.4sqi.net/img/categories_v2/food/pizza_", "suffix": ".png"}}], "chains": [], "distance": 704, "geocodes": {"main": {"latitude": 44.382126, "longitude": -79.707166}, "roof": {"latitude": 44.382126, "longitude": -79.707166}}, "link": "/v3/places/4c15a8a382a3c9b6de3dfff8", "location": {"address": "304 Dunlop St W", "address_extended": "# 18", "country": "CA", "formatted_address": "304 Dunlop St W, Barrie ON L4N 7L2", "locality": "Barrie", "neighborhood": ["Barrie"], "postcode": "L4N 7L2", "region": "ON"}, "name": "Topper's Pizza", "related_places": {}, "timezone": "America/Toronto"}, {"fsq_id": "4d55f4e6611aa35d51503b39", "categories": [{"id": 13065, "name": "Restaurant", "icon": {"prefix": "https://ss3.4sqi.net/img/categories_v2/food/default_", "suffix": ".png"}}], "chains": [], "distance": 720, "geocodes": {"main": {"latitude": 44.379269, "longitude": -79.690911}}, "link": "/v3/places/4d55f4e6611aa35d51503b39", "location": {"address": "75 Ellen St", "country": "CA", "cross_street": "", "formatted_address": "75 Ellen St, Barrie ON L4N 7R6", "locality": "Barrie", "postcode": "L4N 7R6", "region": "ON"}, "name": "The Regatta", "related_places": {}, "timezone": "America/Toronto"}, {"fsq_id": "5730b3d4498e9b120960c3ef", "categories": [{"id": 13055, "name": "Fried Chicken Joint", "icon": {"prefix": "https://ss3.4sqi.net/img/categories_v2/food/friedchicken_", "suffix": ".png"}}, {"id": 13145, "name": "Fast Food Restaurant", "icon": {"prefix": "https://ss3.4sqi.net/img/categories_v2/food/fastfood_", "suffix": ".png"}}], "chains": [], "distance": 833, "geocodes": {"main": {"latitude": 44.385025, "longitude": -79.706227}, "roof": {"latitude": 44.385025, "longitude": -79.706227}}, "link": "/v3/places/5730b3d4498e9b120960c3ef", "location": {"address": "165 Wellington St W", "address_extended": "# 21", "country": "CA", "cross_street": "", "formatted_address": "165 Wellington St W, Barrie ON L4N 1L7", "locality": "Barrie", "postcode": "L4N 1L7", "region": "ON"}, "name": "Mary Browns", "related_places": {}, "timezone": "America/Toronto"}, {"fsq_id": "518e75f5498e684890615880", "categories": [{"id": 13030, "name": "Buffet", "icon": {"prefix": "https://ss3.4sqi.net/img/categories_v2/food/default_", "suffix": ".png"}}, {"id": 13099, "name": "Chinese Restaurant", "icon": {"prefix": "https://ss3.4sqi.net/img/categories_v2/food/asian_", "suffix": ".png"}}], "chains": [], "distance": 835, "geocodes": {"main": {"latitude": 44.386857, "longitude": -79.696126}, "roof": {"latitude": 44.386857, "longitude": -79.696126}}, "link": "/v3/places/518e75f5498e684890615880", "location": {"address": "150 Dunlop St E", "country": "CA", "cross_street": "", "formatted_address": "150 Dunlop St E, Barrie ON L4M 6H1", "locality": "Barrie", "postcode": "L4M 6H1", "region": "ON"}, "name": "Diamond Buffet", "related_places": {}, "timezone": "America/Toronto"}, {"fsq_id": "5b893242bcbf7a002ca80bdf", "categories": [{"id": 13000, "name": "Dining and Drinking", "icon": {"prefix": "https://ss3.4sqi.net/img/categories_v2/food/default_", "suffix": ".png"}}], "chains": [], "distance": 845, "geocodes": {"main": {"latitude": 44.372673, "longitude": -79.697408}, "roof": {"latitude": 44.372673, "longitude": -79.697408}}, "link": "/v3/places/5b893242bcbf7a002ca80bdf", "location": {"address": "131 Tiffin St", "country": "CA", "cross_street": "", "formatted_address": "131 Tiffin St, Barrie ON L4N 2N3", "locality": "Barrie", "postcode": "L4N 2N3", "region": "ON"}, "name": "Mr.Sub", "related_places": {}, "timezone": "America/Toronto"}, {"fsq_id": "4d8ba6980c4e41bdccfe667f", "categories": [{"id": 13064, "name": "Pizzeria", "icon": {"prefix": "https://ss3.4sqi.net/img/categories_v2/food/pizza_", "suffix": ".png"}}, {"id": 13145, "name": "Fast Food Restaurant", "icon": {"prefix": "https://ss3.4sqi.net/img/categories_v2/food/fastfood_", "suffix": ".png"}}], "chains": [{"id": "d5740d80-d890-0132-61d3-7a163eb2a6fc", "name": "Pizza Pizza"}], "distance": 945, "geocodes": {"main": {"latitude": 44.387549, "longitude": -79.694436}, "roof": {"latitude": 44.387549, "longitude": -79.694436}}, "link": "/v3/places/4d8ba6980c4e41bdccfe667f", "location": {"address": "49 High St", "country": "CA", "formatted_address": "49 High St, Barrie ON L4N 5J4", "locality": "Barrie", "neighborhood": ["Barrie"], "postcode": "L4N 5J4", "region": "ON"}, "name": "Pizza Pizza", "related_places": {}, "timezone": "America/Toronto"}, {"fsq_id": "516ed503e4b056c83f73f963", "categories": [{"id": 13039, "name": "Deli", "icon": {"prefix": "https://ss3.4sqi.net/img/categories_v2/food/deli_", "suffix": ".png"}}], "chains": [], "distance": 870, "geocodes": {"main": {"latitude": 44.387203, "longitude": -79.695281}, "roof": {"latitude": 44.387203, "longitude": -79.695281}}, "link": "/v3/places/516ed503e4b056c83f73f963", "location": {"address": "126 Dunlop St W", "country": "CA", "cross_street": "", "formatted_address": "126 Dunlop St W, Barrie ON L4N 1B1", "locality": "Barrie", "neighborhood": ["Downtown"], "postcode": "L4N 1B1", "region": "ON"}, "name": "Continental Specialties", "related_places": {}, "timezone": "America/Toronto"}, {"fsq_id": "55d6927e498ebcdc84cb2b8f", "categories": [{"id": 13031, "name": "Burger Joint", "icon": {"prefix": "https://ss3.4sqi.net/img/categories_v2/food/burger_", "suffix": ".png"}}], "chains": [], "distance": 931, "geocodes": {"main": {"latitude": 44.377342, "longitude": -79.711353}}, "link": "/v3/places/55d6927e498ebcdc84cb2b8f", "location": {"address": "Dunlop St E", "country": "CA", "cross_street": "Mulcaster St", "formatted_address": "Dunlop St E (Mulcaster St), Barrie ON", "locality": "Barrie", "region": "ON"}, "name": "The Marks", "related_places": {}, "timezone": "America/Toronto"}, {"fsq_id": "4f730262e4b053123f659c52", "categories": [{"id": 13034, "name": "Caf\u00e9", "icon": {"prefix": "https://ss3.4sqi.net/img/categories_v2/food/cafe_", "suffix": ".png"}}, {"id": 13065, "name": "Restaurant", "icon": {"prefix": "https://ss3.4sqi.net/img/categories_v2/food/default_", "suffix": ".png"}}], "chains": [], "distance": 983, "geocodes": {"main": {"latitude": 44.373992, "longitude": -79.69112}, "roof": {"latitude": 44.373992, "longitude": -79.69112}}, "link": "/v3/places/4f730262e4b053123f659c52", "location": {"address": "21B Essa Rd", "country": "CA", "cross_street": "", "formatted_address": "21B Essa Rd, Barrie ON L4N 3K4", "locality": "Barrie", "postcode": "L4N 3K4", "region": "ON"}, "name": "Cafe Beans", "related_places": {}, "timezone": "America/Toronto"}]