[{"id": "0ALYlK6edo8OnbiwH-b7fA", "alias": "lazy-tulip-cafe-barrie", "name": "Lazy Tulip Cafe", "image_url": "https://s3-media4.fl.yelpcdn.com/bphoto/hrkM-QFQP4jogKvj72phsA/o.jpg", "is_closed": false, "url": "https://www.yelp.com/biz/lazy-tulip-cafe-barrie?adjust_creative=R3IyOYuVXLt1MMjX1HFo3g&utm_campaign=yelp_api_v3&utm_medium=api_v3_business_search&utm_source=R3IyOYuVXLt1MMjX1HFo3g", "review_count": 59, "categories": [{"alias": "cafes", "title": "Cafes"}, {"alias": "breakfast_brunch", "title": "Breakfast & Brunch"}, {"alias": "sandwiches", "title": "Sandwiches"}], "rating": 4.0, "coordinates": {"latitude": 44.37958, "longitude": -79.69345}, "transactions": [], "price": "$$", "location": {"address1": "151 Bradford Street", "address2": null, "address3": "", "city": "Barrie", "zip_code": "L4N 3B4", "country": "CA", "state": "ON", "display_address": ["151 Bradford Street", "Barrie, ON L4N 3B4", "Canada"]}, "phone": "+17052520910", "display_phone": "+1 705-252-0910", "distance": 531.0234267541861}, {"id": "FEV75sLYoN1dvSpUCyIePA", "alias": "pie-wood-fired-pizza-joint-barrie-4", "name": "Pie Wood Fired Pizza Joint", "image_url": "https://s3-media4.fl.yelpcdn.com/bphoto/-vGeWKhJOaMeEMTQ2e5nQQ/o.jpg", "is_closed": false, "url": "https://www.yelp.com/biz/pie-wood-fired-pizza-joint-barrie-4?adjust_creative=R3IyOYuVXLt1MMjX1HFo3g&utm_campaign=yelp_api_v3&utm_medium=api_v3_business_search&utm_source=R3IyOYuVXLt1MMjX1HFo3g", "review_count": 69, "categories": [{"alias": "pizza", "title": "Pizza"}, {"alias": "beerbar", "title": "Beer Bar"}], "rating": 4.0, "coordinates": {"latitude": 44.3811166940956, "longitude": -79.69071583093}, "transactions": [], "price": "$$", "location": {"address1": "11 Victoria St", "address2": "", "address3": "", "city": "Barrie", "zip_code": "L4N 3A3", "country": "CA", "state": "ON", "display_address": ["11 Victoria St", "Barrie, ON L4N 3A3", "Canada"]}, "phone": "+17057287952", "display_phone": "+1 705-728-7952", "distance": 748.2073409377361}, {"id": "s-noC8RmKF6FF2TZscl4Ig", "alias": "the-farmhouse-restaurant-barrie", "name": "The Farmhouse Restaurant", "image_url": "https://s3-media1.fl.yelpcdn.com/bphoto/02rh8p2DGj8M1wnk1vLeIg/o.jpg", "is_closed": false, "url": "https://www.yelp.com/biz/the-farmhouse-restaurant-barrie?adjust_creative=R3IyOYuVXLt1MMjX1HFo3g&utm_campaign=yelp_api_v3&utm_medium=api_v3_business_search&utm_source=R3IyOYuVXLt1MMjX1HFo3g", "review_count": 84, "categories": [{"alias": "southern", "title": "Southern"}, {"alias": "comfortfood", "title": "Comfort Food"}], "rating": 3.5, "coordinates": {"latitude": 44.3746199, "longitude": -79.6896249}, "transactions": [], "price": "$$", "location": {"address1": "268 Bradford Street", "address2": "", "address3": "", "city": "Barrie", "zip_code": "L4N 3B7", "country": "CA", "state": "ON", "display_address": ["268 Bradford Street", "Barrie, ON L4N 3B7", "Canada"]}, "phone": "+17057370522", "display_phone": "+1 705-737-0522", "distance": 1018.7324994986443}, {"id": "efeu6n1otNmaJPhwNLbLLw", "alias": "il-buco-ristorante-barrie", "name": "Il Buco Ristorante", "image_url": "https://s3-media4.fl.yelpcdn.com/bphoto/sE-WPP7LXr9VpdbVQX-iNA/o.jpg", "is_closed": false, "url": "https://www.yelp.com/biz/il-buco-ristorante-barrie?adjust_creative=R3IyOYuVXLt1MMjX1HFo3g&utm_campaign=yelp_api_v3&utm_medium=api_v3_business_search&utm_source=R3IyOYuVXLt1MMjX1HFo3g", "review_count": 24, "categories": [{"alias": "italian", "title": "Italian"}], "rating": 4.5, "coordinates": {"latitude": 44.38914, "longitude": -79.68919}, "transactions": [], "price": "$$", "location": {"address1": "31 Dunlop St E", "address2": "", "address3": "", "city": "Barrie", "zip_code": "L4M 1A2", "country": "CA", "state": "ON", "display_address": ["31 Dunlop St E", "Barrie, ON L4M 1A2", "Canada"]}, "phone": "+17057359595", "display_phone": "+1 705-735-9595", "distance": 1320.9640188059932}, {"id": "ye_x-eM4Cl7zkjxIAHSj3g", "alias": "casa-mia-restaurant-barrie", "name": "Casa Mia Restaurant", "image_url": "https://s3-media4.fl.yelpcdn.com/bphoto/Vf4WV0GZUMAnigjOON__FQ/o.jpg", "is_closed": false, "url": "https://www.yelp.com/biz/casa-mia-restaurant-barrie?adjust_creative=R3IyOYuVXLt1MMjX1HFo3g&utm_campaign=yelp_api_v3&utm_medium=api_v3_business_search&utm_source=R3IyOYuVXLt1MMjX1HFo3g", "review_count": 23, "categories": [{"alias": "greek", "title": "Greek"}], "rating": 3.5, "coordinates": {"latitude": 44.38801, "longitude": -79.69337}, "transactions": [], "price": "$$", "location": {"address1": "88 Dunlop Street W", "address2": "", "address3": "", "city": "Barrie", "zip_code": "L4N 1A6", "country": "CA", "state": "ON", "display_address": ["88 Dunlop Street W", "Barrie, ON L4N 1A6", "Canada"]}, "phone": "+17057373663", "display_phone": "+1 705-737-3663", "distance": 1061.0880363929712}, {"id": "i2lVeikx7Hj2ep9Y-zpp3Q", "alias": "the-north-restaurant-barrie", "name": "The North Restaurant", "image_url": "https://s3-media4.fl.yelpcdn.com/bphoto/AaY3C7h0v3N0nSIlyY4NWg/o.jpg", "is_closed": false, "url": "https://www.yelp.com/biz/the-north-restaurant-barrie?adjust_creative=R3IyOYuVXLt1MMjX1HFo3g&utm_campaign=yelp_api_v3&utm_medium=api_v3_business_search&utm_source=R3IyOYuVXLt1MMjX1HFo3g", "review_count": 23, "categories": [{"alias": "italian", "title": "Italian"}, {"alias": "steak", "title": "Steakhouses"}, {"alias": "tapasmallplates", "title": "Tapas/Small Plates"}], "rating": 4.0, "coordinates": {"latitude": 44.38873, "longitude": -79.6925}, "transactions": [], "price": "$$$", "location": {"address1": "49 Mary Street", "address2": "", "address3": "", "city": "Barrie", "zip_code": "L4N 1T2", "country": "CA", "state": "ON", "display_address": ["49 Mary Street", "Barrie, ON L4N 1T2", "Canada"]}, "phone": "+17058122192", "display_phone": "+1 705-812-2192", "distance": 1147.843371323796}, {"id": "gQEegmEvAh2btKQDcPd6Yg", "alias": "andys-place-barrie", "name": "Andy's Place", "image_url": "https://s3-media4.fl.yelpcdn.com/bphoto/zyR8s-8pzblTurG0zOAG4w/o.jpg", "is_closed": false, "url": "https://www.yelp.com/biz/andys-place-barrie?adjust_creative=R3IyOYuVXLt1MMjX1HFo3g&utm_campaign=yelp_api_v3&utm_medium=api_v3_business_search&utm_source=R3IyOYuVXLt1MMjX1HFo3g", "review_count": 7, "categories": [{"alias": "breakfast_brunch", "title": "Breakfast & Brunch"}], "rating": 3.5, "coordinates": {"latitude": 44.38115, "longitude": -79.70649}, "transactions": [], "price": "$$", "location": {"address1": "19 Hart Drive", "address2": "", "address3": "", "city": "Barrie", "zip_code": "L4N 5M3", "country": "CA", "state": "ON", "display_address": ["19 Hart Drive", "Barrie, ON L4N 5M3", "Canada"]}, "phone": "+17057219537", "display_phone": "+1 705-721-9537", "distance": 520.3476984335271}, {"id": "OIoDkTi8qTpyyvmoXigJfg", "alias": "bull-and-barrel-pub-barrie", "name": "Bull and Barrel Pub", "image_url": "https://s3-media4.fl.yelpcdn.com/bphoto/0AyZ5mOoedWpqitYSjdvNg/o.jpg", "is_closed": false, "url": "https://www.yelp.com/biz/bull-and-barrel-pub-barrie?adjust_creative=R3IyOYuVXLt1MMjX1HFo3g&utm_campaign=yelp_api_v3&utm_medium=api_v3_business_search&utm_source=R3IyOYuVXLt1MMjX1HFo3g", "review_count": 9, "categories": [{"alias": "pubs", "title": "Pubs"}, {"alias": "british", "title": "British"}, {"alias": "fishnchips", "title": "Fish & Chips"}], "rating": 4.0, "coordinates": {"latitude": 44.3839, "longitude": -79.71124}, "transactions": [], "price": "$$", "location": {"address1": "75 Cedar Pointe Drive", "address2": "Suite 901", "address3": "", "city": "Barrie", "zip_code": "L4N 5R7", "country": "CA", "state": "ON", "display_address": ["75 Cedar Pointe Drive", "Suite 901", "Barrie, ON L4N 5R7", "Canada"]}, "phone": "+17057194600", "display_phone": "+1 705-719-4600", "distance": 924.8574862589559}, {"id": "kHq6MchLviFUvR_r3R5-pg", "alias": "zios-by-giancarlo-barrie", "name": "Zio's By Giancarlo", "image_url": "https://s3-media2.fl.yelpcdn.com/bphoto/_XVjAP0QwkjFOqjriBbFjw/o.jpg", "is_closed": false, "url": "https://www.yelp.com/biz/zios-by-giancarlo-barrie?adjust_creative=R3IyOYuVXLt1MMjX1HFo3g&utm_campaign=yelp_api_v3&utm_medium=api_v3_business_search&utm_source=R3IyOYuVXLt1MMjX1HFo3g", "review_count": 6, "categories": [{"alias": "italian", "title": "Italian"}], "rating": 3.5, "coordinates": {"latitude": 44.37519, "longitude": -79.69955}, "transactions": [], "location": {"address1": "110 Anne Street S", "address2": "", "address3": null, "city": "Barrie", "zip_code": "L4N 2E3", "country": "CA", "state": "ON", "display_address": ["110 Anne Street S", "Barrie, ON L4N 2E3", "Canada"]}, "phone": "+17052525410", "display_phone": "+1 705-252-5410", "distance": 544.1637003074508}, {"id": "rgfmuPbGP4__ymIPw83uZA", "alias": "popeyes-louisiana-kitchen-barrie", "name": "Popeyes\u00ae Louisiana Kitchen", "image_url": "https://s3-media1.fl.yelpcdn.com/bphoto/2kkmUdmOk1qNmF5NpN5ABg/o.jpg", "is_closed": false, "url": "https://www.yelp.com/biz/popeyes-louisiana-kitchen-barrie?adjust_creative=R3IyOYuVXLt1MMjX1HFo3g&utm_campaign=yelp_api_v3&utm_medium=api_v3_business_search&utm_source=R3IyOYuVXLt1MMjX1HFo3g", "review_count": 12, "categories": [{"alias": "tradamerican", "title": "American (Traditional)"}], "rating": 3.0, "coordinates": {"latitude": 44.382589, "longitude": -79.7051327}, "transactions": [], "location": {"address1": "7 Anne St S", "address2": "", "address3": "", "city": "Barrie", "zip_code": "L4N 2C4", "country": "CA", "state": "ON", "display_address": ["7 Anne St S", "Barrie, ON L4N 2C4", "Canada"]}, "phone": "+17057333500", "display_phone": "+1 705-733-3500", "distance": 499.25952086649863}, {"id": "oMYWMunOZycu6s_9hBazDw", "alias": "queen-pouteen-innisfil", "name": "Queen Pouteen", "image_url": "https://s3-media2.fl.yelpcdn.com/bphoto/VgBY4YsMKDTqTr85CaH8pw/o.jpg", "is_closed": false, "url": "https://www.yelp.com/biz/queen-pouteen-innisfil?adjust_creative=R3IyOYuVXLt1MMjX1HFo3g&utm_campaign=yelp_api_v3&utm_medium=api_v3_business_search&utm_source=R3IyOYuVXLt1MMjX1HFo3g", "review_count": 2, "categories": [{"alias": "streetvendors", "title": "Street Vendors"}, {"alias": "poutineries", "title": "Poutineries"}], "rating": 5.0, "coordinates": {"latitude": 44.3755531311035, "longitude": -79.6668472290039}, "transactions": [], "location": {"address1": "1455 Innisfil Street", "address2": null, "address3": "", "city": "Innisfil", "zip_code": "L4N 4B7", "country": "CA", "state": "ON", "display_address": ["1455 Innisfil Street", "Innisfil, ON L4N 4B7", "Canada"]}, "phone": "+17057164459", "display_phone": "+1 705-716-4459", "distance": 779.4246112909967}, {"id": "a6OlGATGhnb3dTkHUNPONw", "alias": "mexhico-barrie-2", "name": "Mexhico", "image_url": "https://s3-media2.fl.yelpcdn.com/bphoto/y3ysMwLu67xpJh0XF9HTBg/o.jpg", "is_closed": false, "url": "https://www.yelp.com/biz/mexhico-barrie-2?adjust_creative=R3IyOYuVXLt1MMjX1HFo3g&utm_campaign=yelp_api_v3&utm_medium=api_v3_business_search&utm_source=R3IyOYuVXLt1MMjX1HFo3g", "review_count": 3, "categories": [{"alias": "mexican", "title": "Mexican"}], "rating": 4.5, "coordinates": {"latitude": 44.38876, "longitude": -79.69105}, "transactions": [], "location": {"address1": "37 Dunlop Street W", "address2": null, "address3": "", "city": "Barrie", "zip_code": "L4N 1A1", "country": "CA", "state": "ON", "display_address": ["37 Dunlop Street W", "Barrie, ON L4N 1A1", "Canada"]}, "phone": "+17052524526", "display_phone": "+1 705-252-4526", "distance": 1208.2003813409542}, {"id": "SXk-0tWayI9ZK7KHzkTnpg", "alias": "midway-diner-barrie", "name": "Midway Diner", "image_url": "https://s3-media3.fl.yelpcdn.com/bphoto/4U2zi_xz1uPItHIY9VVj9w/o.jpg", "is_closed": false, "url": "https://www.yelp.com/biz/midway-diner-barrie?adjust_creative=R3IyOYuVXLt1MMjX1HFo3g&utm_campaign=yelp_api_v3&utm_medium=api_v3_business_search&utm_source=R3IyOYuVXLt1MMjX1HFo3g", "review_count": 3, "categories": [{"alias": "diners", "title": "Diners"}], "rating": 4.0, "coordinates": {"latitude": 44.37958, "longitude": -79.69345}, "transactions": [], "price": "$", "location": {"address1": "151 Bradford Street", "address2": "", "address3": "", "city": "Barrie", "zip_code": "L4N 3B4", "country": "CA", "state": "ON", "display_address": ["151 Bradford Street", "Barrie, ON L4N 3B4", "Canada"]}, "phone": "+17057300881", "display_phone": "+1 705-730-0881", "distance": 531.6356187190861}, {"id": "Wm4f7pW94NRaxEJKV01ecg", "alias": "little-ds-family-restaurant-barrie", "name": "Little D's Family Restaurant", "image_url": "https://s3-media2.fl.yelpcdn.com/bphoto/K9yt2YTVTEnodXEVBuX2FA/o.jpg", "is_closed": false, "url": "https://www.yelp.com/biz/little-ds-family-restaurant-barrie?adjust_creative=R3IyOYuVXLt1MMjX1HFo3g&utm_campaign=yelp_api_v3&utm_medium=api_v3_business_search&utm_source=R3IyOYuVXLt1MMjX1HFo3g", "review_count": 5, "categories": [{"alias": "newcanadian", "title": "Canadian (New)"}], "rating": 4.0, "coordinates": {"latitude": 44.388856, "longitude": -79.7044724}, "transactions": [], "price": "$", "location": {"address1": "165 Wellington Street W", "address2": "", "address3": "", "city": "Barrie", "zip_code": "L4N 1L7", "country": "CA", "state": "ON", "display_address": ["165 Wellington Street W", "Barrie, ON L4N 1L7", "Canada"]}, "phone": "+17058122215", "display_phone": "+1 705-812-2215", "distance": 905.7998113998702}, {"id": "S3xHE3S2JJTqNM5rismurQ", "alias": "casano-italian-resturant-barrie-2", "name": "Casano Italian Resturant", "image_url": "https://s3-media2.fl.yelpcdn.com/bphoto/CYa0_tmqOD1U9iiqeS3bMw/o.jpg", "is_closed": false, "url": "https://www.yelp.com/biz/casano-italian-resturant-barrie-2?adjust_creative=R3IyOYuVXLt1MMjX1HFo3g&utm_campaign=yelp_api_v3&utm_medium=api_v3_business_search&utm_source=R3IyOYuVXLt1MMjX1HFo3g", "review_count": 1, "categories": [{"alias": "gluten_free", "title": "Gluten-Free"}, {"alias": "italian", "title": "Italian"}], "rating": 5.0, "coordinates": {"latitude": 44.3794359610929, "longitude": -79.7024420276284}, "transactions": [], "location": {"address1": "49 Anne Street  S", "address2": "Suite 1", "address3": "", "city": "Barrie", "zip_code": "L4N 2E1", "country": "CA", "state": "ON", "display_address": ["49 Anne Street  S", "Suite 1", "Barrie, ON L4N 2E1", "Canada"]}, "phone": "+17055034752", "display_phone": "+1 705-503-4752", "distance": 203.95821542321445}, {"id": "kfAQT5mUV6vXwo8zDYm6wA", "alias": "diamond-sushi-barrie-3", "name": "Diamond Sushi", "image_url": "https://s3-media1.fl.yelpcdn.com/bphoto/OXWF_XZk4YYzbfD21_243g/o.jpg", "is_closed": false, "url": "https://www.yelp.com/biz/diamond-sushi-barrie-3?adjust_creative=R3IyOYuVXLt1MMjX1HFo3g&utm_campaign=yelp_api_v3&utm_medium=api_v3_business_search&utm_source=R3IyOYuVXLt1MMjX1HFo3g", "review_count": 8, "categories": [{"alias": "sushi", "title": "Sushi Bars"}, {"alias": "japanese", "title": "Japanese"}], "rating": 2.5, "coordinates": {"latitude": 44.38131, "longitude": -79.70394}, "transactions": [], "location": {"address1": "29 Anne Street S", "address2": null, "address3": "", "city": "Barrie", "zip_code": "L4N 2C5", "country": "CA", "state": "ON", "display_address": ["29 Anne Street S", "Barrie, ON L4N 2C5", "Canada"]}, "phone": "+17052526833", "display_phone": "+1 705-252-6833", "distance": 301.4591654739441}, {"id": "_z8IrYtb0IdWU9bDRXJnsA", "alias": "foxs-bakery-and-deli-barrie-2", "name": "Fox's Bakery & Deli", "image_url": "https://s3-media2.fl.yelpcdn.com/bphoto/O04tIF6AKoWfCJV62_Euxg/o.jpg", "is_closed": false, "url": "https://www.yelp.com/biz/foxs-bakery-and-deli-barrie-2?adjust_creative=R3IyOYuVXLt1MMjX1HFo3g&utm_campaign=yelp_api_v3&utm_medium=api_v3_business_search&utm_source=R3IyOYuVXLt1MMjX1HFo3g", "review_count": 1, "categories": [{"alias": "bakeries", "title": "Bakeries"}, {"alias": "delis", "title": "Delis"}, {"alias": "gourmet", "title": "Specialty Food"}], "rating": 4.0, "coordinates": {"latitude": 44.3814717, "longitude": -79.69799697}, "transactions": [], "price": "$$", "location": {"address1": "96 Victoria Street", "address2": "", "address3": null, "city": "Barrie", "zip_code": "L4N 2J1", "country": "CA", "state": "ON", "display_address": ["96 Victoria Street", "Barrie, ON L4N 2J1", "Canada"]}, "phone": "+17057374646", "display_phone": "+1 705-737-4646", "distance": 228.29693144080196}, {"id": "arimEKQgfjqfZwvfEgq5FQ", "alias": "heinz-burger-barrie", "name": "Heinz Burger", "image_url": "https://s3-media4.fl.yelpcdn.com/bphoto/bnJjDfrKENkIdYdCWC_ebw/o.jpg", "is_closed": false, "url": "https://www.yelp.com/biz/heinz-burger-barrie?adjust_creative=R3IyOYuVXLt1MMjX1HFo3g&utm_campaign=yelp_api_v3&utm_medium=api_v3_business_search&utm_source=R3IyOYuVXLt1MMjX1HFo3g", "review_count": 5, "categories": [{"alias": "burgers", "title": "Burgers"}], "rating": 4.0, "coordinates": {"latitude": 44.3744302, "longitude": -79.6987406}, "transactions": [], "price": "$", "location": {"address1": "120 Anne Street South", "address2": "", "address3": "", "city": "Barrie", "zip_code": "L4N 6A2", "country": "CA", "state": "ON", "display_address": ["120 Anne Street South", "Barrie, ON L4N 6A2", "Canada"]}, "phone": "+17057251000", "display_phone": "+1 705-725-1000", "distance": 627.3688757365139}, {"id": "QXOlo2jhYRlh06dzXW5jOA", "alias": "british-arms-pub-barrie", "name": "British Arms Pub", "image_url": "https://s3-media3.fl.yelpcdn.com/bphoto/pC2x142_bweMGaP2iYvziw/o.jpg", "is_closed": false, "url": "https://www.yelp.com/biz/british-arms-pub-barrie?adjust_creative=R3IyOYuVXLt1MMjX1HFo3g&utm_campaign=yelp_api_v3&utm_medium=api_v3_business_search&utm_source=R3IyOYuVXLt1MMjX1HFo3g", "review_count": 21, "categories": [{"alias": "british", "title": "British"}, {"alias": "pubs", "title": "Pubs"}], "rating": 2.5, "coordinates": {"latitude": 44.38914, "longitude": -79.6893}, "transactions": [], "price": "$$", "location": {"address1": "29 Dunlop Street E", "address2": "", "address3": "", "city": "Barrie", "zip_code": "L4M 1A2", "country": "CA", "state": "ON", "display_address": ["29 Dunlop Street E", "Barrie, ON L4M 1A2", "Canada"]}, "phone": "+17057281111", "display_phone": "+1 705-728-1111", "distance": 1318.8279803630178}, {"id": "P0RxMoTLm2jiIxT8uNz-tA", "alias": "mcdonalds-barrie", "name": "McDonald's", "image_url": "https://s3-media4.fl.yelpcdn.com/bphoto/pUxQN_BgPcGgBiFcyeH7cA/o.jpg", "is_closed": false, "url": "https://www.yelp.com/biz/mcdonalds-barrie?adjust_creative=R3IyOYuVXLt1MMjX1HFo3g&utm_campaign=yelp_api_v3&utm_medium=api_v3_business_search&utm_source=R3IyOYuVXLt1MMjX1HFo3g", "review_count": 12, "categories": [{"alias": "hotdogs", "title": "Fast Food"}, {"alias": "burgers", "title": "Burgers"}, {"alias": "coffee", "title": "Coffee & Tea"}], "rating": 2.0, "coordinates": {"latitude": 44.3877946211821, "longitude": -79.6927850516711}, "transactions": [], "price": "$", "location": {"address1": "85 Dunlop Street", "address2": "", "address3": "", "city": "Barrie", "zip_code": "L4N 1A5", "country": "CA", "state": "ON", "display_address": ["85 Dunlop Street", "Barrie, ON L4N 1A5", "Canada"]}, "phone": "+17057266500", "display_phone": "+1 705-726-6500", "distance": 1039.2019641319691}, {"id": "bkJi9uCcYgpIl1Bmc9zzXQ", "alias": "bacio-barrie", "name": "Bacio", "image_url": "https://s3-media2.fl.yelpcdn.com/bphoto/eRRAqlVAamM2TJ6rZ-v-0Q/o.jpg", "is_closed": false, "url": "https://www.yelp.com/biz/bacio-barrie?adjust_creative=R3IyOYuVXLt1MMjX1HFo3g&utm_campaign=yelp_api_v3&utm_medium=api_v3_business_search&utm_source=R3IyOYuVXLt1MMjX1HFo3g", "review_count": 1, "categories": [{"alias": "wine_bars", "title": "Wine Bars"}, {"alias": "italian", "title": "Italian"}, {"alias": "seafood", "title": "Seafood"}], "rating": 5.0, "coordinates": {"latitude": 44.38860467779607, "longitude": -79.69219464808702}, "transactions": [], "location": {"address1": "62 Dunlop Street W", "address2": "", "address3": null, "city": "Barrie", "zip_code": "L4N 1A4", "country": "CA", "state": "ON", "display_address": ["62 Dunlop Street W", "Barrie, ON L4N 1A4", "Canada"]}, "phone": "+17052523355", "display_phone": "+1 705-252-3355", "distance": 1140.2584934708061}, {"id": "VLbkrsjeDL6Oh0ot6UDoEA", "alias": "cha-cha-cha-italian-restaurant-barrie", "name": "Cha Cha Cha Italian Restaurant", "image_url": "https://s3-media4.fl.yelpcdn.com/bphoto/nCtSYSXoHFvAPWLTC_6Taw/o.jpg", "is_closed": false, "url": "https://www.yelp.com/biz/cha-cha-cha-italian-restaurant-barrie?adjust_creative=R3IyOYuVXLt1MMjX1HFo3g&utm_campaign=yelp_api_v3&utm_medium=api_v3_business_search&utm_source=R3IyOYuVXLt1MMjX1HFo3g", "review_count": 8, "categories": [{"alias": "italian", "title": "Italian"}], "rating": 2.5, "coordinates": {"latitude": 44.3885384, "longitude": -79.6921692}, "transactions": [], "price": "$$$", "location": {"address1": "62 Dunlop Street W", "address2": "", "address3": "", "city": "Barrie", "zip_code": "L4N 1A2", "country": "CA", "state": "ON", "display_address": ["62 Dunlop Street W", "Barrie, ON L4N 1A2", "Canada"]}, "phone": "+17055032422", "display_phone": "+1 705-503-2422", "distance": 1140.2669666198124}, {"id": "MaUWxs9S9Xl8xaf5GxIttw", "alias": "dragon-restaurant-barrie", "name": "Dragon Restaurant", "image_url": "https://s3-media1.fl.yelpcdn.com/bphoto/g886Y_sogfDm5R5BMzy4aw/o.jpg", "is_closed": false, "url": "https://www.yelp.com/biz/dragon-restaurant-barrie?adjust_creative=R3IyOYuVXLt1MMjX1HFo3g&utm_campaign=yelp_api_v3&utm_medium=api_v3_business_search&utm_source=R3IyOYuVXLt1MMjX1HFo3g", "review_count": 10, "categories": [{"alias": "chinese", "title": "Chinese"}], "rating": 2.0, "coordinates": {"latitude": 44.3716099, "longitude": -79.69213}, "transactions": [], "price": "$$", "location": {"address1": "70 Essa Road", "address2": "", "address3": "", "city": "Barrie", "zip_code": "L4N 3K7", "country": "CA", "state": "ON", "display_address": ["70 Essa Road", "Barrie, ON L4N 3K7", "Canada"]}, "phone": "+17057282828", "display_phone": "+1 705-728-2828", "distance": 1142.4796218513266}, {"id": "i9arGdq7VrNkRZVDRTE3tg", "alias": "continental-specialties-and-imports-barrie", "name": "Continental Specialties and Imports", "image_url": "https://s3-media2.fl.yelpcdn.com/bphoto/8yKavFJWS6N89OVMQu99ew/o.jpg", "is_closed": false, "url": "https://www.yelp.com/biz/continental-specialties-and-imports-barrie?adjust_creative=R3IyOYuVXLt1MMjX1HFo3g&utm_campaign=yelp_api_v3&utm_medium=api_v3_business_search&utm_source=R3IyOYuVXLt1MMjX1HFo3g", "review_count": 1, "categories": [{"alias": "delis", "title": "Delis"}, {"alias": "sandwiches", "title": "Sandwiches"}], "rating": 4.0, "coordinates": {"latitude": 44.38718737232778, "longitude": -79.69544805615513}, "transactions": [], "location": {"address1": "124 Dunlop Street W", "address2": "", "address3": "", "city": "Barrie", "zip_code": "L4N 1B1", "country": "CA", "state": "ON", "display_address": ["124 Dunlop Street W", "Barrie, ON L4N 1B1", "Canada"]}, "phone": "+17057285741", "display_phone": "+1 705-728-5741", "distance": 877.250994602876}, {"id": "E-nq3ixyQE22Zpzy24iCeg", "alias": "amaya-indian-room-barrie", "name": "Amaya Indian Room", "image_url": "https://s3-media3.fl.yelpcdn.com/bphoto/HJQjNCEMOSckKnNvkT7DIw/o.jpg", "is_closed": false, "url": "https://www.yelp.com/biz/amaya-indian-room-barrie?adjust_creative=R3IyOYuVXLt1MMjX1HFo3g&utm_campaign=yelp_api_v3&utm_medium=api_v3_business_search&utm_source=R3IyOYuVXLt1MMjX1HFo3g", "review_count": 1, "categories": [{"alias": "indpak", "title": "Indian"}, {"alias": "thai", "title": "Thai"}], "rating": 3.0, "coordinates": {"latitude": 44.38075726495962, "longitude": -79.706463329494}, "transactions": [], "location": {"address1": "19 Hart Drive", "address2": "", "address3": null, "city": "Barrie", "zip_code": "L4N 5M3", "country": "CA", "state": "ON", "display_address": ["19 Hart Drive", "Barrie, ON L4N 5M3", "Canada"]}, "phone": "+17052522100", "display_phone": "+1 705-252-2100", "distance": 520.51162748872}, {"id": "4fJOYR0M__Z1MGJSEKchgg", "alias": "pita-pit-barrie-2", "name": "Pita Pit", "image_url": "https://s3-media2.fl.yelpcdn.com/bphoto/o6I9v3ZyhQQV0IY_l_hXCA/o.jpg", "is_closed": false, "url": "https://www.yelp.com/biz/pita-pit-barrie-2?adjust_creative=R3IyOYuVXLt1MMjX1HFo3g&utm_campaign=yelp_api_v3&utm_medium=api_v3_business_search&utm_source=R3IyOYuVXLt1MMjX1HFo3g", "review_count": 4, "categories": [{"alias": "sandwiches", "title": "Sandwiches"}], "rating": 3.5, "coordinates": {"latitude": 44.38882, "longitude": -79.69089}, "transactions": [], "location": {"address1": "29 Dunlop Street W", "address2": "", "address3": "", "city": "Barrie", "zip_code": "L4N 1A1", "country": "CA", "state": "ON", "display_address": ["29 Dunlop Street W", "Barrie, ON L4N 1A1", "Canada"]}, "phone": "+17057284484", "display_phone": "+1 705-728-4484", "distance": 1222.3946610460982}, {"id": "f03x81zRCDIj8e8L6JNtfQ", "alias": "one-love-island-cuisine-barrie", "name": "One Love Island Cuisine", "image_url": "https://s3-media2.fl.yelpcdn.com/bphoto/cuErKc5KNAdQWCSGiIRByA/o.jpg", "is_closed": false, "url": "https://www.yelp.com/biz/one-love-island-cuisine-barrie?adjust_creative=R3IyOYuVXLt1MMjX1HFo3g&utm_campaign=yelp_api_v3&utm_medium=api_v3_business_search&utm_source=R3IyOYuVXLt1MMjX1HFo3g", "review_count": 2, "categories": [{"alias": "caribbean", "title": "Caribbean"}], "rating": 3.0, "coordinates": {"latitude": 44.38822, "longitude": -79.69149}, "transactions": [], "location": {"address1": "47 Dunlop Street W", "address2": null, "address3": null, "city": "Barrie", "zip_code": "L4N 1A3", "country": "CA", "state": "ON", "display_address": ["47 Dunlop Street W", "Barrie, ON L4N 1A3", "Canada"]}, "phone": "+17057211345", "display_phone": "+1 705-721-1345", "distance": 1156.1486610886946}, {"id": "CbnxxgJoXbk1X0iWT_4T1w", "alias": "town-and-country-steak-house-barrie", "name": "Town & Country Steak House", "image_url": "https://s3-media2.fl.yelpcdn.com/bphoto/8WWY3BAqindNNZbuVbwZpw/o.jpg", "is_closed": false, "url": "https://www.yelp.com/biz/town-and-country-steak-house-barrie?adjust_creative=R3IyOYuVXLt1MMjX1HFo3g&utm_campaign=yelp_api_v3&utm_medium=api_v3_business_search&utm_source=R3IyOYuVXLt1MMjX1HFo3g", "review_count": 10, "categories": [{"alias": "steak", "title": "Steakhouses"}, {"alias": "newcanadian", "title": "Canadian (New)"}], "rating": 3.5, "coordinates": {"latitude": 44.38826, "longitude": -79.69282}, "transactions": [], "price": "$$$$", "location": {"address1": "76 Dunlop Street W", "address2": "", "address3": "", "city": "Barrie", "zip_code": "L4N 1A6", "country": "CA", "state": "ON", "display_address": ["76 Dunlop Street W", "Barrie, ON L4N 1A6", "Canada"]}, "phone": "+17057265241", "display_phone": "+1 705-726-5241", "distance": 1083.5501772375417}, {"id": "V1DeY0mPWtyk7BTXBKLe6A", "alias": "papa-joes-pizza-and-chicken-barrie", "name": "Papa Joe's Pizza & Chicken", "image_url": "https://s3-media2.fl.yelpcdn.com/bphoto/Ri1SxC-6vXQDtc6BNUuYVw/o.jpg", "is_closed": false, "url": "https://www.yelp.com/biz/papa-joes-pizza-and-chicken-barrie?adjust_creative=R3IyOYuVXLt1MMjX1HFo3g&utm_campaign=yelp_api_v3&utm_medium=api_v3_business_search&utm_source=R3IyOYuVXLt1MMjX1HFo3g", "review_count": 3, "categories": [{"alias": "chicken_wings", "title": "Chicken Wings"}, {"alias": "pizza", "title": "Pizza"}], "rating": 3.5, "coordinates": {"latitude": 44.38254, "longitude": -79.70491}, "transactions": [], "location": {"address1": "7 Ann Street S", "address2": null, "address3": "", "city": "Barrie", "zip_code": "L4N 2C4", "country": "CA", "state": "ON", "display_address": ["7 Ann Street S", "Barrie, ON L4N 2C4", "Canada"]}, "phone": "+17057352222", "display_phone": "+1 705-735-2222", "distance": 440.3484618877077}, {"id": "QlyA70XUC8td_RtdBAPm-Q", "alias": "tandoori-tonight-barrie", "name": "Tandoori Tonight", "image_url": "https://s3-media4.fl.yelpcdn.com/bphoto/NuVEhHAFMMC12mTAapj8dA/o.jpg", "is_closed": false, "url": "https://www.yelp.com/biz/tandoori-tonight-barrie?adjust_creative=R3IyOYuVXLt1MMjX1HFo3g&utm_campaign=yelp_api_v3&utm_medium=api_v3_business_search&utm_source=R3IyOYuVXLt1MMjX1HFo3g", "review_count": 2, "categories": [{"alias": "indpak", "title": "Indian"}], "rating": 1.5, "coordinates": {"latitude": 44.383628, "longitude": -79.7063536}, "transactions": [], "location": {"address1": "36 Anne Street N", "address2": "", "address3": null, "city": "Barrie", "zip_code": "L4N 2B6", "country": "CA", "state": "ON", "display_address": ["36 Anne Street N", "Barrie, ON L4N 2B6", "Canada"]}, "phone": "+17055033328", "display_phone": "+1 705-503-3328", "distance": 646.2897460408076}, {"id": "8_YHWdY9dcDO6k2171wxLQ", "alias": "pattyhut-barrie", "name": "Pattyhut", "image_url": "https://s3-media1.fl.yelpcdn.com/bphoto/0cNJPeW5MFYXCew5CB_jhg/o.jpg", "is_closed": false, "url": "https://www.yelp.com/biz/pattyhut-barrie?adjust_creative=R3IyOYuVXLt1MMjX1HFo3g&utm_campaign=yelp_api_v3&utm_medium=api_v3_business_search&utm_source=R3IyOYuVXLt1MMjX1HFo3g", "review_count": 2, "categories": [{"alias": "caribbean", "title": "Caribbean"}], "rating": 4.5, "coordinates": {"latitude": 44.3886, "longitude": -79.6914}, "transactions": [], "location": {"address1": "41 Dunlop Street W", "address2": null, "address3": "", "city": "Barrie", "zip_code": "L4N 1A3", "country": "CA", "state": "ON", "display_address": ["41 Dunlop Street W", "Barrie, ON L4N 1A3", "Canada"]}, "phone": "+17052520488", "display_phone": "+1 705-252-0488", "distance": 1168.3632436968733}, {"id": "sS8sW8o-8N2NG4adHTwA0w", "alias": "pizza-nova-barrie-3", "name": "Pizza Nova", "image_url": "https://s3-media3.fl.yelpcdn.com/bphoto/ckbjh-b9M-8oJX3HUM_Yiw/o.jpg", "is_closed": false, "url": "https://www.yelp.com/biz/pizza-nova-barrie-3?adjust_creative=R3IyOYuVXLt1MMjX1HFo3g&utm_campaign=yelp_api_v3&utm_medium=api_v3_business_search&utm_source=R3IyOYuVXLt1MMjX1HFo3g", "review_count": 1, "categories": [{"alias": "pizza", "title": "Pizza"}], "rating": 4.0, "coordinates": {"latitude": 44.3819, "longitude": -79.7064}, "transactions": [], "location": {"address1": "285 Dunlop Street W", "address2": "", "address3": null, "city": "Barrie", "zip_code": "L4N 1C1", "country": "CA", "state": "ON", "display_address": ["285 Dunlop Street W", "Barrie, ON L4N 1C1", "Canada"]}, "phone": "+18443103300", "display_phone": "+1 844-310-3300", "distance": 516.0103575215452}, {"id": "WKj_BAoPkrCyuxDbkE4ZZw", "alias": "scarpaccios-ristorante-grill-and-wine-bar-barrie", "name": "Scarpaccio's Ristorante Grill & Wine Bar", "image_url": "https://s3-media2.fl.yelpcdn.com/bphoto/Frz6h5byEmOXp4oM9pw14w/o.jpg", "is_closed": false, "url": "https://www.yelp.com/biz/scarpaccios-ristorante-grill-and-wine-bar-barrie?adjust_creative=R3IyOYuVXLt1MMjX1HFo3g&utm_campaign=yelp_api_v3&utm_medium=api_v3_business_search&utm_source=R3IyOYuVXLt1MMjX1HFo3g", "review_count": 3, "categories": [{"alias": "wine_bars", "title": "Wine Bars"}, {"alias": "newcanadian", "title": "Canadian (New)"}], "rating": 1.0, "coordinates": {"latitude": 44.3778626, "longitude": -79.7109557}, "transactions": [], "price": "$$", "location": {"address1": "81 Hart Drive", "address2": "", "address3": "", "city": "Barrie", "zip_code": "L4N 5M3", "country": "CA", "state": "ON", "display_address": ["81 Hart Drive", "Barrie, ON L4N 5M3", "Canada"]}, "phone": "+17057972506", "display_phone": "+1 705-797-2506", "distance": 902.5506070454063}, {"id": "eqpF414pL9qCG_awcJwEUA", "alias": "four-season-delight-barrie", "name": "Four Season Delight", "image_url": "https://s3-media3.fl.yelpcdn.com/bphoto/7MIaqfYD5B-vWmIYWdZ94w/o.jpg", "is_closed": false, "url": "https://www.yelp.com/biz/four-season-delight-barrie?adjust_creative=R3IyOYuVXLt1MMjX1HFo3g&utm_campaign=yelp_api_v3&utm_medium=api_v3_business_search&utm_source=R3IyOYuVXLt1MMjX1HFo3g", "review_count": 1, "categories": [{"alias": "chinese", "title": "Chinese"}], "rating": 1.0, "coordinates": {"latitude": 44.3884265, "longitude": -79.6921246}, "transactions": [], "location": {"address1": "62 Dunlop Street W", "address2": "", "address3": "", "city": "Barrie", "zip_code": "L4N 1A4", "country": "CA", "state": "ON", "display_address": ["62 Dunlop Street W", "Barrie, ON L4N 1A4", "Canada"]}, "phone": "+17057194886", "display_phone": "+1 705-719-4886", "distance": 1126.7682451522726}, {"id": "2crqdAqpinx5UP84Tk0vJA", "alias": "roti-jerk-barrie", "name": "Roti Jerk", "image_url": "", "is_closed": false, "url": "https://www.yelp.com/biz/roti-jerk-barrie?adjust_creative=R3IyOYuVXLt1MMjX1HFo3g&utm_campaign=yelp_api_v3&utm_medium=api_v3_business_search&utm_source=R3IyOYuVXLt1MMjX1HFo3g", "review_count": 2, "categories": [{"alias": "caribbean", "title": "Caribbean"}], "rating": 3.5, "coordinates": {"latitude": 44.38809, "longitude": -79.69248}, "transactions": [], "location": {"address1": "69 Dunlop St W", "address2": "", "address3": "", "city": "Barrie", "zip_code": "L4N 1A3", "country": "CA", "state": "ON", "display_address": ["69 Dunlop St W", "Barrie, ON L4N 1A3", "Canada"]}, "phone": "+17057926952", "display_phone": "+1 705-792-6952", "distance": 1086.516322998826}, {"id": "xNyz8lGq4xuJk-HEczC9cA", "alias": "dq-grill-and-chill-restaurant-barrie-4", "name": "DQ Grill & Chill Restaurant", "image_url": "", "is_closed": false, "url": "https://www.yelp.com/biz/dq-grill-and-chill-restaurant-barrie-4?adjust_creative=R3IyOYuVXLt1MMjX1HFo3g&utm_campaign=yelp_api_v3&utm_medium=api_v3_business_search&utm_source=R3IyOYuVXLt1MMjX1HFo3g", "review_count": 1, "categories": [{"alias": "hotdogs", "title": "Fast Food"}, {"alias": "icecream", "title": "Ice Cream & Frozen Yogurt"}, {"alias": "burgers", "title": "Burgers"}], "rating": 1.0, "coordinates": {"latitude": 44.382128777279, "longitude": -79.6935052462732}, "transactions": [], "location": {"address1": "103 Bradford St", "address2": "", "address3": "", "city": "Barrie", "zip_code": "L4N 3A9", "country": "CA", "state": "ON", "display_address": ["103 Bradford St", "Barrie, ON L4N 3A9", "Canada"]}, "phone": "+17057289792", "display_phone": "+1 705-728-9792", "distance": 567.8369016766923}, {"id": "Y1RVnmhUoqB-aWYrHYeDqQ", "alias": "toppers-pizza-barrie", "name": "Topper's Pizza", "image_url": "https://s3-media4.fl.yelpcdn.com/bphoto/bdjClzqJEURNQ95ebTn56A/o.jpg", "is_closed": false, "url": "https://www.yelp.com/biz/toppers-pizza-barrie?adjust_creative=R3IyOYuVXLt1MMjX1HFo3g&utm_campaign=yelp_api_v3&utm_medium=api_v3_business_search&utm_source=R3IyOYuVXLt1MMjX1HFo3g", "review_count": 1, "categories": [{"alias": "pizza", "title": "Pizza"}, {"alias": "chicken_wings", "title": "Chicken Wings"}, {"alias": "hotdogs", "title": "Fast Food"}], "rating": 1.0, "coordinates": {"latitude": 44.38198, "longitude": -79.70745}, "transactions": [], "location": {"address1": "304 Dunlop Street", "address2": "", "address3": "", "city": "Barrie", "zip_code": "L4N 7L2", "country": "CA", "state": "ON", "display_address": ["304 Dunlop Street", "Barrie, ON L4N 7L2", "Canada"]}, "phone": "+18664546644", "display_phone": "+1 866-454-6644", "distance": 676.1652248318073}]